[
  {
    "id": "toronto_general",
    "name": "Toronto General Hospital",
    "address": "200 Elizabeth St, Toronto, ON M5G 2C4",
    "city": "Toronto",
    "latitude": 43.6596,
    "longitude": -79.3894,
    "phone": "416-340-4800",
    "services": ["Emergency", "Trauma", "Cardiac Care"],
    "waitTimeUrl": "https://www.uhn.ca/PatientsFamilies/Visit_UHN/Emergency/Pages/wait_times.aspx",
    "defaultWaitTime": 120
  },
  {
    "id": "mount_sinai",
    "name": "Mount Sinai Hospital",
    "address": "600 University Ave, Toronto, ON M5G 1X5",
    "city": "Toronto",
    "latitude": 43.6567,
    "longitude": -79.3900,
    "phone": "416-596-4200",
    "services": ["Emergency", "Maternity", "Surgery"],
    "waitTimeUrl": "https://www.sinaihealth.ca/patients-visitors/emergency-wait-times/",
    "defaultWaitTime": 90
  },
  {
    "id": "st_michaels",
    "name": "St. Michael's Hospital",
    "address": "30 Bond St, Toronto, ON M5B 1W8",
    "city": "Toronto",
    "latitude": 43.6533,
    "longitude": -79.3772,
    "phone": "416-360-4000",
    "services": ["Emergency", "Trauma", "Cardiology"],
    "waitTimeUrl": "https://www.unityhealth.to/areas-of-care/emergency-care/",
    "defaultWaitTime": 135
  },
  {
    "id": "sunnybrook",
    "name": "Sunnybrook Health Sciences Centre",
    "address": "2075 Bayview Ave, Toronto, ON M4N 3M5",
    "city": "Toronto",
    "latitude": 43.7239,
    "longitude": -79.3759,
    "phone": "416-480-6100",
    "services": ["Emergency", "Trauma", "Veterans Care"],
    "waitTimeUrl": "https://sunnybrook.ca/content/?page=emergency-wait-times",
    "defaultWaitTime": 105
  },
  {
    "id": "north_york_general",
    "name": "North York General Hospital",
    "address": "4001 Leslie St, North York, ON M2K 1E1",
    "city": "Toronto",
    "latitude": 43.7653,
    "longitude": -79.3977,
    "phone": "416-756-6000",
    "services": ["Emergency", "Surgery", "Mental Health"],
    "waitTimeUrl": "https://www.nygh.on.ca/patients-visitors/emergency-department",
    "defaultWaitTime": 100
  },
  {
    "id": "brampton_civic",
    "name": "Brampton Civic Hospital",
    "address": "2100 Bovaird Dr E, Brampton, ON L6R 3J7",
    "city": "Brampton",
    "latitude": 43.7310,
    "longitude": -79.7487,
    "phone": "905-494-2120",
    "services": ["Emergency", "Surgery", "Maternity"],
    "waitTimeUrl": "https://www.williamoslerhs.ca/patients-and-families/emergency-wait-times/",
    "defaultWaitTime": 80
  },
  {
    "id": "peel_memorial",
    "name": "Peel Memorial Centre for Integrated Health and Wellness",
    "address": "20 Lynch St, Brampton, ON L6W 3A2",
    "city": "Brampton",
    "latitude": 43.6876,
    "longitude": -79.7580,
    "phone": "905-494-2120",
    "services": ["Urgent Care", "Ambulatory", "Rehabilitation"],
    "waitTimeUrl": "https://www.williamoslerhs.ca/patients-and-families/emergency-wait-times/",
    "defaultWaitTime": 70
  },
  {
    "id": "trillium_mississauga",
    "name": "Trillium Health Partners - Mississauga Hospital",
    "address": "100 Queensway W, Mississauga, ON L5B 1B8",
    "city": "Mississauga",
    "latitude": 43.5890,
    "longitude": -79.6441,
    "phone": "905-848-7100",
    "services": ["Emergency", "Maternity", "Cardiology"],
    "waitTimeUrl": "https://trilliumhealthpartners.ca/patients-visitors/emergency-wait-times.html",
    "defaultWaitTime": 140
  },
  {
    "id": "trillium_credit_valley",
    "name": "Trillium Health Partners - Credit Valley Hospital",
    "address": "2200 Eglinton Ave W, Mississauga, ON L5M 2N1",
    "city": "Mississauga",
    "latitude": 43.5847,
    "longitude": -79.6489,
    "phone": "905-813-2200",
    "services": ["Emergency", "Surgery", "Cancer Care"],
    "waitTimeUrl": "https://trilliumhealthpartners.ca/patients-visitors/emergency-wait-times.html",
    "defaultWaitTime": 95
  },
  {
    "id": "ottawa_civic",
    "name": "The Ottawa Hospital - Civic Campus",
    "address": "1053 Carling Ave, Ottawa, ON K1Y 4E9",
    "city": "Ottawa",
    "latitude": 45.3979,
    "longitude": -75.7338,
    "phone": "613-722-7000",
    "services": ["Emergency", "Trauma", "Surgery"],
    "waitTimeUrl": "https://www.ottawahospital.on.ca/en/patients-visitors/emergency-department-wait-times/",
    "defaultWaitTime": 150
  },
  {
    "id": "ottawa_general",
    "name": "The Ottawa Hospital - General Campus",
    "address": "501 Smyth Rd, Ottawa, ON K1H 8L6",
    "city": "Ottawa",
    "latitude": 45.4042,
    "longitude": -75.6533,
    "phone": "613-722-7000",
    "services": ["Emergency", "Cardiac", "Research"],
    "waitTimeUrl": "https://www.ottawahospital.on.ca/en/patients-visitors/emergency-department-wait-times/",
    "defaultWaitTime": 110
  },
  {
    "id": "hamilton_general",
    "name": "Hamilton General Hospital",
    "address": "237 Barton St E, Hamilton, ON L8L 2X2",
    "city": "Hamilton",
    "latitude": 43.2557,
    "longitude": -79.8480,
    "phone": "905-527-4322",
    "services": ["Emergency", "Trauma", "Stroke Care"],
    "waitTimeUrl": "https://www.hamiltonhealthsciences.ca/patients-visitors/emergency-wait-times/",
    "defaultWaitTime": 95
  },
  {
    "id": "london_victoria",
    "name": "London Health Sciences Centre - Victoria Hospital",
    "address": "800 Commissioners Rd E, London, ON N6A 5W9",
    "city": "London",
    "latitude": 42.9738,
    "longitude": -81.2178,
    "phone": "519-685-8500",
    "services": ["Emergency", "Pediatrics", "Surgery"],
    "waitTimeUrl": "https://www.lhsc.on.ca/patients-visitors/emergency-wait-times",
    "defaultWaitTime": 125
  }
]
